[
    {
        "id": "sapporo",
        "name": "札幌",
        "kana": "さっぽろ",
        "lines": [
            "jr-hokkaido.hakodate-main",
            "jr-hokkaido.chitose",
            "jr-hokkaido.sassho"
        ],
        "region": "道央",
        "isMajor": true,
        "lat": 43.0687,
        "lon": 141.3508,
        "name_en": "Sapporo",
        "name_zh": "札幌"
    },
    {
        "id": "shin-sapporo",
        "name": "新札幌",
        "kana": "しんさっぽろ",
        "lines": [
            "jr-hokkaido.chitose"
        ],
        "region": "道央",
        "isMajor": true,
        "lat": 43.0388,
        "lon": 141.4733,
        "name_en": "Shin-Sapporo",
        "name_zh": "新札幌"
    },
    {
        "id": "shin-chitose-airport",
        "name": "新千歳空港",
        "kana": "しんちとせくうこう",
        "lines": [
            "jr-hokkaido.chitose"
        ],
        "region": "道央",
        "isMajor": true,
        "lat": 42.7877,
        "lon": 141.6795,
        "name_en": "New Chitose Airport",
        "name_zh": "新千歳空港"
    },
    {
        "id": "minami-chitose",
        "name": "南千歳",
        "kana": "みなみちとせ",
        "lines": [
            "jr-hokkaido.chitose",
            "jr-hokkaido.sekihoku-main"
        ],
        "region": "道央",
        "isMajor": true,
        "lat": 42.8091,
        "lon": 141.6748,
        "name_en": "Minami-Chitose",
        "name_zh": "南千歳"
    },
    {
        "id": "chitose",
        "name": "千歳",
        "kana": "ちとせ",
        "lines": [
            "jr-hokkaido.chitose"
        ],
        "region": "道央",
        "lat": 42.8282,
        "lon": 141.6521,
        "name_en": "Chitose",
        "name_zh": "千歳"
    },
    {
        "id": "osatsu",
        "name": "長都",
        "kana": "おさつ",
        "lines": [
            "jr-hokkaido.chitose"
        ],
        "region": "道央",
        "lat": 42.8532,
        "lon": 141.6136,
        "name_en": "Osatsu",
        "name_zh": "長都"
    },
    {
        "id": "sapporo-beer-teien",
        "name": "サッポロビール庭園",
        "kana": "さっぽろびーるていえん",
        "lines": [
            "jr-hokkaido.chitose"
        ],
        "region": "道央",
        "lat": 42.8632,
        "lon": 141.5936,
        "name_en": "Sapporo Beer Garden",
        "name_zh": "札幌啤酒庭园"
    },
    {
        "id": "eniwa",
        "name": "恵庭",
        "kana": "えにわ",
        "lines": [
            "jr-hokkaido.chitose"
        ],
        "region": "道央",
        "lat": 42.8832,
        "lon": 141.5836,
        "name_en": "Eniwa",
        "name_zh": "恵庭"
    },
    {
        "id": "megumino",
        "name": "恵み野",
        "kana": "めぐみの",
        "lines": [
            "jr-hokkaido.chitose"
        ],
        "region": "道央",
        "lat": 42.8932,
        "lon": 141.5736,
        "name_en": "Megumino",
        "name_zh": "恵み野"
    },
    {
        "id": "shimamatsu",
        "name": "島松",
        "kana": "しままつ",
        "lines": [
            "jr-hokkaido.chitose"
        ],
        "region": "道央",
        "lat": 42.9032,
        "lon": 141.5633,
        "name_en": "Shimamatsu",
        "name_zh": "島松"
    },
    {
        "id": "kitahiroshima",
        "name": "北広島",
        "kana": "きたひろしま",
        "lines": [
            "jr-hokkaido.chitose"
        ],
        "region": "道央",
        "lat": 42.9806,
        "lon": 141.5649,
        "name_en": "Kitahiroshima",
        "name_zh": "北広島"
    },
    {
        "id": "kaminopporo",
        "name": "上野幌",
        "kana": "かみのっぽろ",
        "lines": [
            "jr-hokkaido.chitose"
        ],
        "region": "道央",
        "lat": 43.0188,
        "lon": 141.4933,
        "name_en": "Kaminopporo",
        "name_zh": "上野幌"
    },
    {
        "id": "heiwa",
        "name": "平和",
        "kana": "へいわ",
        "lines": [
            "jr-hokkaido.chitose"
        ],
        "region": "道央",
        "lat": 43.0288,
        "lon": 141.4533,
        "name_en": "Heiwa",
        "name_zh": "平和"
    },
    {
        "id": "otaru",
        "name": "小樽",
        "kana": "おたる",
        "lines": [
            "jr-hokkaido.hakodate-main"
        ],
        "region": "道央",
        "isMajor": true,
        "lat": 43.1977,
        "lon": 140.9937,
        "name_en": "Otaru",
        "name_zh": "小樽"
    },
    {
        "id": "otaru-chikko",
        "name": "小樽築港",
        "kana": "おたるちっこう",
        "lines": [
            "jr-hokkaido.hakodate-main"
        ],
        "region": "道央",
        "lat": 43.1818,
        "lon": 141.0269,
        "name_en": "Otaru-Chikko",
        "name_zh": "小樽築港"
    },
    {
        "id": "zenibako",
        "name": "銭函",
        "kana": "ぜにばこ",
        "lines": [
            "jr-hokkaido.hakodate-main"
        ],
        "region": "道央",
        "lat": 43.1438,
        "lon": 141.1594,
        "name_en": "Zenibako",
        "name_zh": "銭函"
    },
    {
        "id": "asari",
        "name": "朝里",
        "kana": "あさり",
        "lines": [
            "jr-hokkaido.hakodate-main"
        ],
        "region": "道央",
        "lat": 43.16,
        "lon": 141.08,
        "name_en": "Asari",
        "name_zh": "朝里"
    },
    {
        "id": "yoichi",
        "name": "余市",
        "kana": "よいち",
        "lines": [
            "jr-hokkaido.hakodate-main"
        ],
        "region": "道央",
        "lat": 43.1878,
        "lon": 140.7847,
        "name_en": "Yoichi",
        "name_zh": "余市"
    },
    {
        "id": "minami-otaru",
        "name": "南小樽",
        "kana": "みなみおたる",
        "lines": [
            "jr-hokkaido.hakodate-main"
        ],
        "region": "道央",
        "lat": 43.187,
        "lon": 141.007,
        "name_en": "Minami-Otaru",
        "name_zh": "南小樽"
    },
    {
        "id": "niki",
        "name": "仁木",
        "kana": "にき",
        "lines": [
            "jr-hokkaido.hakodate-main"
        ],
        "region": "道央",
        "lat": 43.15,
        "lon": 140.77,
        "name_en": "Niki",
        "name_zh": "仁木"
    },
    {
        "id": "kozawa",
        "name": "小沢",
        "kana": "こざわ",
        "lines": [
            "jr-hokkaido.hakodate-main"
        ],
        "region": "道央",
        "lat": 42.98,
        "lon": 140.68,
        "name_en": "Kozawa",
        "name_zh": "小沢"
    },
    {
        "id": "kutchan",
        "name": "倶知安",
        "kana": "くっちゃん",
        "lines": [
            "jr-hokkaido.hakodate-main"
        ],
        "region": "道央",
        "isMajor": true,
        "lat": 42.9,
        "lon": 140.75,
        "name_en": "Kutchan",
        "name_zh": "倶知安"
    },
    {
        "id": "niseko",
        "name": "ニセコ",
        "kana": "にせこ",
        "lines": [
            "jr-hokkaido.hakodate-main"
        ],
        "region": "道央",
        "lat": 42.8,
        "lon": 140.68,
        "name_en": "Niseko",
        "name_zh": "二世古"
    },
    {
        "id": "rankoshi",
        "name": "蘭越",
        "kana": "らんこし",
        "lines": [
            "jr-hokkaido.hakodate-main"
        ],
        "region": "道央",
        "lat": 42.8,
        "lon": 140.52,
        "name_en": "Rankoshi",
        "name_zh": "蘭越"
    },
    {
        "id": "kuromatsunai",
        "name": "黒松内",
        "kana": "くろまつない",
        "lines": [
            "jr-hokkaido.hakodate-main"
        ],
        "region": "道央",
        "lat": 42.67,
        "lon": 140.3,
        "name_en": "Kuromatsunai",
        "name_zh": "黒松内"
    },
    {
        "id": "hassamu-chuo",
        "name": "発寒中央",
        "kana": "はっさむちゅうおう",
        "lines": [
            "jr-hokkaido.hakodate-main"
        ],
        "region": "道央",
        "lat": 43.0918,
        "lon": 141.2864,
        "name_en": "Hassamu-Chuo",
        "name_zh": "発寒中央"
    },
    {
        "id": "inazumi-koen",
        "name": "稲積公園",
        "kana": "いなづみこうえん",
        "lines": [
            "jr-hokkaido.hakodate-main"
        ],
        "region": "道央",
        "lat": 43.1,
        "lon": 141.26,
        "name_en": "Inazumikoen",
        "name_zh": "稲積公園"
    },
    {
        "id": "teine",
        "name": "手稲",
        "kana": "ていね",
        "lines": [
            "jr-hokkaido.hakodate-main"
        ],
        "region": "道央",
        "lat": 43.1118,
        "lon": 141.2464,
        "name_en": "Teine",
        "name_zh": "手稲"
    },
    {
        "id": "inaho",
        "name": "稲穂",
        "kana": "いなほ",
        "lines": [
            "jr-hokkaido.hakodate-main"
        ],
        "region": "道央",
        "lat": 43.12,
        "lon": 141.22,
        "name_en": "Inaho",
        "name_zh": "稲穂"
    },
    {
        "id": "hoshimi",
        "name": "ほしみ",
        "kana": "ほしみ",
        "lines": [
            "jr-hokkaido.hakodate-main"
        ],
        "region": "道央",
        "lat": 43.13,
        "lon": 141.2,
        "name_en": "Hoshimi",
        "name_zh": "ほしみ"
    },
    {
        "id": "kotoni",
        "name": "琴似",
        "kana": "ことに",
        "lines": [
            "jr-hokkaido.hakodate-main"
        ],
        "region": "道央",
        "lat": 43.0815,
        "lon": 141.306,
        "name_en": "Kotoni",
        "name_zh": "琴似"
    },
    {
        "id": "soen",
        "name": "桑園",
        "kana": "そうえん",
        "lines": [
            "jr-hokkaido.hakodate-main",
            "jr-hokkaido.sassho"
        ],
        "region": "道央",
        "lat": 43.0708,
        "lon": 141.3325,
        "name_en": "Soen",
        "name_zh": "桑園"
    },
    {
        "id": "naebo",
        "name": "苗穂",
        "kana": "なえぼ",
        "lines": [
            "jr-hokkaido.hakodate-main"
        ],
        "region": "道央",
        "lat": 43.0685,
        "lon": 141.38,
        "name_en": "Naebo",
        "name_zh": "苗穂"
    },
    {
        "id": "shiroishi",
        "name": "白石",
        "kana": "しろいし",
        "lines": [
            "jr-hokkaido.hakodate-main",
            "jr-hokkaido.chitose"
        ],
        "region": "道央",
        "lat": 43.0545,
        "lon": 141.4135,
        "name_en": "Shiroishi",
        "name_zh": "白石"
    },
    {
        "id": "atsubetsu",
        "name": "厚別",
        "kana": "あつべつ",
        "lines": [
            "jr-hokkaido.hakodate-main"
        ],
        "region": "道央",
        "lat": 43.045,
        "lon": 141.455,
        "name_en": "Atsubetsu",
        "name_zh": "厚別"
    },
    {
        "id": "oochi",
        "name": "大麻",
        "kana": "おおち",
        "lines": [
            "jr-hokkaido.hakodate-main"
        ],
        "region": "道央",
        "lat": 43.07,
        "lon": 141.5,
        "name_en": "Oochi",
        "name_zh": "大麻"
    },
    {
        "id": "nopporo",
        "name": "野幌",
        "kana": "のっぽろ",
        "lines": [
            "jr-hokkaido.hakodate-main"
        ],
        "region": "道央",
        "lat": 43.09,
        "lon": 141.53,
        "name_en": "Nopporo",
        "name_zh": "野幌"
    },
    {
        "id": "ebetsu",
        "name": "江別",
        "kana": "えべつ",
        "lines": [
            "jr-hokkaido.hakodate-main"
        ],
        "region": "道央",
        "lat": 43.11,
        "lon": 141.55,
        "name_en": "Ebetsu",
        "name_zh": "江別"
    },
    {
        "id": "toyohoro",
        "name": "豊幌",
        "kana": "とよほろ",
        "lines": [
            "jr-hokkaido.hakodate-main"
        ],
        "region": "道央",
        "lat": 43.125,
        "lon": 141.615,
        "name_en": "Toyohoro",
        "name_zh": "豊幌"
    },
    {
        "id": "horomui",
        "name": "幌向",
        "kana": "ほろむい",
        "lines": [
            "jr-hokkaido.hakodate-main"
        ],
        "region": "道央",
        "lat": 43.151,
        "lon": 141.657,
        "name_en": "Horomui",
        "name_zh": "幌向"
    },
    {
        "id": "kamishunai",
        "name": "上幌向",
        "kana": "かみほろむい",
        "lines": [
            "jr-hokkaido.hakodate-main"
        ],
        "region": "道央",
        "lat": 43.175,
        "lon": 141.705,
        "name_en": "Kami-Horomui",
        "name_zh": "上幌向"
    },
    {
        "id": "iwamizawa",
        "name": "岩見沢",
        "kana": "いわみざわ",
        "lines": [
            "jr-hokkaido.hakodate-main",
            "jr-hokkaido.muroran-main"
        ],
        "region": "道央",
        "isMajor": true,
        "lat": 43.2042,
        "lon": 141.7596,
        "name_en": "Iwamizawa",
        "name_zh": "岩見沢"
    },
    {
        "id": "bibai",
        "name": "美唄",
        "kana": "びばい",
        "lines": [
            "jr-hokkaido.hakodate-main"
        ],
        "region": "道央",
        "lat": 43.2977,
        "lon": 141.8617,
        "name_en": "Bibai",
        "name_zh": "美唄"
    },
    {
        "id": "naie",
        "name": "奈井江",
        "kana": "ないえ",
        "lines": [
            "jr-hokkaido.hakodate-main"
        ],
        "region": "道央",
        "lat": 43.42,
        "lon": 141.89,
        "name_en": "Naie",
        "name_zh": "奈井江"
    },
    {
        "id": "sunagawa",
        "name": "砂川",
        "kana": "すながわ",
        "lines": [
            "jr-hokkaido.hakodate-main"
        ],
        "region": "道央",
        "lat": 43.4934,
        "lon": 141.9083,
        "name_en": "Sunagawa",
        "name_zh": "砂川"
    },
    {
        "id": "takikawa",
        "name": "滝川",
        "kana": "たきかわ",
        "lines": [
            "jr-hokkaido.hakodate-main",
            "jr-hokkaido.nemuro-main"
        ],
        "region": "道央",
        "lat": 43.5552,
        "lon": 141.908,
        "name_en": "Takikawa",
        "name_zh": "滝川"
    },
    {
        "id": "akabira",
        "name": "赤平",
        "kana": "あかびら",
        "lines": [
            "jr-hokkaido.nemuro-main"
        ],
        "region": "道央",
        "lat": 43.55,
        "lon": 142.05,
        "name_en": "Akabira",
        "name_zh": "赤平"
    },
    {
        "id": "ebeotsu",
        "name": "江部乙",
        "kana": "えべおつ",
        "lines": [
            "jr-hokkaido.hakodate-main"
        ],
        "region": "道央",
        "lat": 43.62,
        "lon": 141.93,
        "name_en": "Ebeotsu",
        "name_zh": "江部乙"
    },
    {
        "id": "moseushi",
        "name": "妹背牛",
        "kana": "もせうし",
        "lines": [
            "jr-hokkaido.hakodate-main"
        ],
        "region": "道央",
        "lat": 43.7,
        "lon": 141.96,
        "name_en": "Moseushi",
        "name_zh": "妹背牛"
    },
    {
        "id": "ashibetsu",
        "name": "芦別",
        "kana": "あしべつ",
        "lines": [
            "jr-hokkaido.nemuro-main"
        ],
        "region": "道央",
        "lat": 43.51,
        "lon": 142.18,
        "name_en": "Ashibetsu",
        "name_zh": "芦別"
    },
    {
        "id": "osamunai",
        "name": "納内",
        "kana": "おさむない",
        "lines": [
            "jr-hokkaido.hakodate-main"
        ],
        "region": "道央",
        "lat": 43.68,
        "lon": 142.0,
        "name_en": "Osamunai",
        "name_zh": "納内"
    },
    {
        "id": "fukagawa",
        "name": "深川",
        "kana": "ふかがわ",
        "lines": [
            "jr-hokkaido.hakodate-main"
        ],
        "region": "道央",
        "lat": 43.7212,
        "lon": 142.0416,
        "name_en": "Fukagawa",
        "name_zh": "深川"
    },
    {
        "id": "ishikari-numata",
        "name": "石狩沼田",
        "kana": "いしかりぬまた",
        "lines": [
            "jr-hokkaido.rumoi"
        ],
        "region": "道北",
        "lat": 43.79,
        "lon": 141.93,
        "name_en": "Ishikari-Numata",
        "name_zh": "石狩沼田"
    },
    {
        "id": "asahikawa",
        "name": "旭川",
        "kana": "あさひかわ",
        "lines": [
            "jr-hokkaido.hakodate-main",
            "jr-hokkaido.soya-main",
            "jr-hokkaido.sekihoku-main"
        ],
        "region": "道央",
        "isMajor": true,
        "lat": 43.7628,
        "lon": 142.3587,
        "name_en": "Asahikawa",
        "name_zh": "旭川"
    },
    {
        "id": "nagayama",
        "name": "永山",
        "kana": "ながやま",
        "lines": [
            "jr-hokkaido.soya-main",
            "jr-hokkaido.sekihoku-main"
        ],
        "region": "道北",
        "lat": 43.81,
        "lon": 142.44,
        "name_en": "Nagayama",
        "name_zh": "永山"
    },
    {
        "id": "pippu",
        "name": "比布",
        "kana": "ぴっぷ",
        "lines": [
            "jr-hokkaido.soya-main"
        ],
        "region": "道北",
        "lat": 43.87,
        "lon": 142.47,
        "name_en": "Pippu",
        "name_zh": "比布"
    },
    {
        "id": "ranru",
        "name": "蘭留",
        "kana": "らんる",
        "lines": [
            "jr-hokkaido.soya-main"
        ],
        "region": "道北",
        "lat": 43.94,
        "lon": 142.48,
        "name_en": "Ranru",
        "name_zh": "蘭留"
    },
    {
        "id": "hachiken",
        "name": "八軒",
        "kana": "はちけん",
        "lines": [
            "jr-hokkaido.sassho"
        ],
        "region": "道央",
        "lat": 43.088,
        "lon": 141.325,
        "name_en": "Hachiken",
        "name_zh": "八軒"
    },
    {
        "id": "shinkawa",
        "name": "新川",
        "kana": "しんかわ",
        "lines": [
            "jr-hokkaido.sassho"
        ],
        "region": "道央",
        "lat": 43.1,
        "lon": 141.325,
        "name_en": "Shinkawa",
        "name_zh": "新川"
    },
    {
        "id": "shin-kotoni",
        "name": "新琴似",
        "kana": "しんことに",
        "lines": [
            "jr-hokkaido.sassho"
        ],
        "region": "道央",
        "lat": 43.1,
        "lon": 141.33,
        "name_en": "Shin-Kotoni",
        "name_zh": "新琴似"
    },
    {
        "id": "taihei",
        "name": "太平",
        "kana": "たいへい",
        "lines": [
            "jr-hokkaido.sassho"
        ],
        "region": "道央",
        "lat": 43.13,
        "lon": 141.35,
        "name_en": "Taihei",
        "name_zh": "太平"
    },
    {
        "id": "yurigahara",
        "name": "百合が原",
        "kana": "ゆりがはら",
        "lines": [
            "jr-hokkaido.sassho"
        ],
        "region": "道央",
        "lat": 43.14,
        "lon": 141.37,
        "name_en": "Yurigahara",
        "name_zh": "百合が原"
    },
    {
        "id": "shinoro",
        "name": "篠路",
        "kana": "しのろ",
        "lines": [
            "jr-hokkaido.sassho"
        ],
        "region": "道央",
        "lat": 43.145,
        "lon": 141.385,
        "name_en": "Shinoro",
        "name_zh": "篠路"
    },
    {
        "id": "takuhoku",
        "name": "拓北",
        "kana": "たくほく",
        "lines": [
            "jr-hokkaido.sassho"
        ],
        "region": "道央",
        "lat": 43.155,
        "lon": 141.415,
        "name_en": "Takuhoku",
        "name_zh": "拓北"
    },
    {
        "id": "ainosato-kyoiku-dai",
        "name": "あいの里教育大",
        "kana": "あいのさときょういくだい",
        "lines": [
            "jr-hokkaido.sassho"
        ],
        "region": "道央",
        "lat": 43.1554,
        "lon": 141.4011,
        "name_en": "Ainosato-Kyoikudai",
        "name_zh": "爱之里教育大"
    },
    {
        "id": "ainosato-koen",
        "name": "あいの里公園",
        "kana": "あいのさとこうえん",
        "lines": [
            "jr-hokkaido.sassho"
        ],
        "region": "道央",
        "lat": 43.165,
        "lon": 141.425,
        "name_en": "Ainosato-Koen",
        "name_zh": "爱之里公园"
    },
    {
        "id": "ishikari-futomi",
        "name": "石狩太美",
        "kana": "いしかりふとみ",
        "lines": [
            "jr-hokkaido.sassho"
        ],
        "region": "道央",
        "lat": 43.195,
        "lon": 141.465,
        "name_en": "Ishikari-Futomi",
        "name_zh": "石狩太美"
    },
    {
        "id": "ishikari-tobetsu",
        "name": "石狩当別",
        "kana": "いしかりとうべつ",
        "lines": [
            "jr-hokkaido.sassho"
        ],
        "region": "道央",
        "lat": 43.2208,
        "lon": 141.5126,
        "name_en": "Ishikari-Tobetsu",
        "name_zh": "石狩当別"
    },
    {
        "id": "hokkaido-iryo-daigaku",
        "name": "北海道医療大学",
        "kana": "ほっかいどういりょうだいがく",
        "lines": [
            "jr-hokkaido.sassho"
        ],
        "region": "道央",
        "lat": 43.2384,
        "lon": 141.5422,
        "name_en": "Hokkaido Medical Univ.",
        "name_zh": "北海道医疗大学"
    },
    {
        "id": "tomakomai",
        "name": "苫小牧",
        "kana": "とまこまい",
        "lines": [
            "jr-hokkaido.muroran-main",
            "jr-hokkaido.chitose"
        ],
        "region": "道央",
        "isMajor": true,
        "lat": 42.6416,
        "lon": 141.5973,
        "name_en": "Tomakomai",
        "name_zh": "苫小牧"
    },
    {
        "id": "mukawa",
        "name": "むかわ",
        "kana": "むかわ",
        "lines": [
            "jr-hokkaido.hidaka"
        ],
        "region": "道東",
        "lat": 42.57,
        "lon": 141.92,
        "name_en": "Mukawa",
        "name_zh": "鹉川"
    },
    {
        "id": "shiraoi",
        "name": "白老",
        "kana": "しらおい",
        "lines": [
            "jr-hokkaido.muroran-main"
        ],
        "region": "道央",
        "lat": 42.5539,
        "lon": 141.3533,
        "name_en": "Shiraoi",
        "name_zh": "白老"
    },
    {
        "id": "noboribetsu",
        "name": "登別",
        "kana": "のぼりべつ",
        "lines": [
            "jr-hokkaido.muroran-main"
        ],
        "region": "道央",
        "lat": 42.4552,
        "lon": 141.1764,
        "name_en": "Noboribetsu",
        "name_zh": "登別"
    },
    {
        "id": "higashi-muroran",
        "name": "東室蘭",
        "kana": "ひがしむろらん",
        "lines": [
            "jr-hokkaido.muroran-main"
        ],
        "region": "道央",
        "isMajor": true,
        "lat": 42.3392,
        "lon": 141.0263,
        "name_en": "Higashi Muroran",
        "name_zh": "東室蘭"
    },
    {
        "id": "muroran",
        "name": "室蘭",
        "kana": "むろらん",
        "lines": [
            "jr-hokkaido.muroran-main"
        ],
        "region": "道央",
        "lat": 42.3152,
        "lon": 140.9753,
        "name_en": "Muroran",
        "name_zh": "室蘭"
    },
    {
        "id": "datemombetsu",
        "name": "伊達紋別",
        "kana": "だてもんべつ",
        "lines": [
            "jr-hokkaido.muroran-main"
        ],
        "region": "道央",
        "lat": 42.4697,
        "lon": 140.8542,
        "name_en": "Datemombetsu",
        "name_zh": "伊達紋別"
    },
    {
        "id": "toya",
        "name": "洞爺",
        "kana": "とうや",
        "lines": [
            "jr-hokkaido.muroran-main"
        ],
        "region": "道央",
        "lat": 42.5592,
        "lon": 140.7589,
        "name_en": "Toya",
        "name_zh": "洞爺"
    },
    {
        "id": "kuriyama",
        "name": "栗山",
        "kana": "くりやま",
        "lines": [
            "jr-hokkaido.muroran-main"
        ],
        "region": "道央",
        "lat": 43.0589,
        "lon": 141.7761,
        "name_en": "Kuriyama",
        "name_zh": "栗山"
    },
    {
        "id": "yuni",
        "name": "由仁",
        "kana": "ゆに",
        "lines": [
            "jr-hokkaido.muroran-main"
        ],
        "region": "道央",
        "lat": 43.0039,
        "lon": 141.785,
        "name_en": "Yuni",
        "name_zh": "由仁"
    },
    {
        "id": "abira",
        "name": "安平",
        "kana": "あびら",
        "lines": [
            "jr-hokkaido.muroran-main"
        ],
        "region": "道央",
        "lat": 42.8767,
        "lon": 141.7633,
        "name_en": "Abira",
        "name_zh": "安平"
    },
    {
        "id": "oizawake",
        "name": "追分",
        "kana": "おいざわけ",
        "lines": [
            "jr-hokkaido.muroran-main",
            "jr-hokkaido.sekisho"
        ],
        "region": "道央",
        "lat": 42.8731,
        "lon": 141.8106,
        "name_en": "Oizawake",
        "name_zh": "追分"
    },
    {
        "id": "shimukappu",
        "name": "占冠",
        "kana": "しむかっぷ",
        "lines": [
            "jr-hokkaido.sekisho"
        ],
        "region": "道央",
        "lat": 42.99,
        "lon": 142.39,
        "name_en": "Shimukappu",
        "name_zh": "占冠"
    },
    {
        "id": "tomamu",
        "name": "トマム",
        "kana": "トマム",
        "lines": [
            "jr-hokkaido.sekisho"
        ],
        "region": "道東",
        "isMajor": true,
        "lat": 43.0558,
        "lon": 142.6122,
        "name_en": "Tomamu",
        "name_zh": "トマム"
    },
    {
        "id": "furano",
        "name": "富良野",
        "kana": "ふらの",
        "lines": [
            "jr-hokkaido.furano",
            "jr-hokkaido.nemuro-main"
        ],
        "region": "道北",
        "isMajor": true,
        "lat": 43.3469,
        "lon": 142.3917,
        "name_en": "Furano",
        "name_zh": "富良野"
    },
    {
        "id": "nakafurano",
        "name": "中富良野",
        "kana": "なかふらの",
        "lines": [
            "jr-hokkaido.furano"
        ],
        "region": "道北",
        "lat": 43.41,
        "lon": 142.42,
        "name_en": "Nakafurano",
        "name_zh": "中富良野"
    },
    {
        "id": "kamifurano",
        "name": "上富良野",
        "kana": "かみふらの",
        "lines": [
            "jr-hokkaido.furano"
        ],
        "region": "道北",
        "lat": 43.46,
        "lon": 142.46,
        "name_en": "Kamifurano",
        "name_zh": "上富良野"
    },
    {
        "id": "bibaushi",
        "name": "美馬牛",
        "kana": "びばうし",
        "lines": [
            "jr-hokkaido.furano"
        ],
        "region": "道北",
        "lat": 43.54,
        "lon": 142.45,
        "name_en": "Bibaushi",
        "name_zh": "美馬牛"
    },
    {
        "id": "biei",
        "name": "美瑛",
        "kana": "びえい",
        "lines": [
            "jr-hokkaido.furano"
        ],
        "region": "道北",
        "lat": 43.5908,
        "lon": 142.4628,
        "name_en": "Biei",
        "name_zh": "美瑛"
    },
    {
        "id": "wakkanai",
        "name": "稚内",
        "kana": "わっかない",
        "lines": [
            "jr-hokkaido.soya-main"
        ],
        "region": "道北",
        "isMajor": true,
        "lat": 45.4162,
        "lon": 141.6734,
        "name_en": "Wakkanai",
        "name_zh": "稚内"
    },
    {
        "id": "shibetsu",
        "name": "士別",
        "kana": "しべつ",
        "lines": [
            "jr-hokkaido.soya-main"
        ],
        "region": "道北",
        "lat": 44.1794,
        "lon": 142.3969,
        "name_en": "Shibetsu",
        "name_zh": "士別"
    },
    {
        "id": "wassamu",
        "name": "和寒",
        "kana": "わっさむ",
        "lines": [
            "jr-hokkaido.soya-main"
        ],
        "region": "道北",
        "lat": 44.02,
        "lon": 142.42,
        "name_en": "Wassamu",
        "name_zh": "和寒"
    },
    {
        "id": "kenbuchi",
        "name": "剣淵",
        "kana": "けんぶち",
        "lines": [
            "jr-hokkaido.soya-main"
        ],
        "region": "道北",
        "lat": 44.1,
        "lon": 142.42,
        "name_en": "Kenbuchi",
        "name_zh": "剣淵"
    },
    {
        "id": "nayoro",
        "name": "名寄",
        "kana": "なよろ",
        "lines": [
            "jr-hokkaido.soya-main"
        ],
        "region": "道北",
        "lat": 44.3562,
        "lon": 142.4641,
        "name_en": "Nayoro",
        "name_zh": "名寄"
    },
    {
        "id": "bifuka",
        "name": "美深",
        "kana": "びふか",
        "lines": [
            "jr-hokkaido.soya-main"
        ],
        "region": "道北",
        "lat": 44.48,
        "lon": 142.35,
        "name_en": "Bifuka",
        "name_zh": "美深"
    },
    {
        "id": "otoineppu",
        "name": "音威子府",
        "kana": "おといねっぷ",
        "lines": [
            "jr-hokkaido.soya-main"
        ],
        "region": "道北",
        "lat": 44.73,
        "lon": 142.26,
        "name_en": "Otoineppu",
        "name_zh": "音威子府"
    },
    {
        "id": "teshio-nakagawa",
        "name": "天塩中川",
        "kana": "てしおなかがわ",
        "lines": [
            "jr-hokkaido.soya-main"
        ],
        "region": "道北",
        "lat": 44.81,
        "lon": 142.06,
        "name_en": "Teshio Nakagawa",
        "name_zh": "天塩中川"
    },
    {
        "id": "kamikawa",
        "name": "上川",
        "kana": "かみかわ",
        "lines": [
            "jr-hokkaido.sekihoku-main"
        ],
        "region": "道北",
        "lat": 43.8483,
        "lon": 142.7725,
        "name_en": "Kamikawa",
        "name_zh": "上川"
    },
    {
        "id": "antaroma",
        "name": "安足間",
        "kana": "あんたろま",
        "lines": [
            "jr-hokkaido.sekihoku-main"
        ],
        "region": "道北",
        "lat": 43.88,
        "lon": 142.72,
        "name_en": "Antaroma",
        "name_zh": "安足間"
    },
    {
        "id": "aibetsu",
        "name": "愛別",
        "kana": "あいべつ",
        "lines": [
            "jr-hokkaido.sekihoku-main"
        ],
        "region": "道北",
        "lat": 43.91,
        "lon": 142.58,
        "name_en": "Aibetsu",
        "name_zh": "愛別"
    },
    {
        "id": "shirataki",
        "name": "白滝",
        "kana": "しらたき",
        "lines": [
            "jr-hokkaido.sekihoku-main"
        ],
        "region": "道北",
        "lat": 43.88,
        "lon": 143.18,
        "name_en": "Shirataki",
        "name_zh": "白滝"
    },
    {
        "id": "maruseppu",
        "name": "丸瀬布",
        "kana": "まるせっぷ",
        "lines": [
            "jr-hokkaido.sekihoku-main"
        ],
        "region": "道北",
        "lat": 43.99,
        "lon": 143.34,
        "name_en": "Maruseppu",
        "name_zh": "丸瀬布"
    },
    {
        "id": "ikutahara",
        "name": "生田原",
        "kana": "いくたはら",
        "lines": [
            "jr-hokkaido.sekihoku-main"
        ],
        "region": "道北",
        "lat": 43.96,
        "lon": 143.48,
        "name_en": "Ikutahara",
        "name_zh": "生田原"
    },
    {
        "id": "rubeshibe",
        "name": "留辺蘂",
        "kana": "るべしべ",
        "lines": [
            "jr-hokkaido.sekihoku-main"
        ],
        "region": "道北",
        "lat": 43.78,
        "lon": 143.61,
        "name_en": "Rubeshibe",
        "name_zh": "留辺蘂"
    },
    {
        "id": "tanno",
        "name": "端野",
        "kana": "たんの",
        "lines": [
            "jr-hokkaido.sekihoku-main"
        ],
        "region": "道北",
        "lat": 43.85,
        "lon": 143.95,
        "name_en": "Tanno",
        "name_zh": "端野"
    },
    {
        "id": "engaru",
        "name": "遠軽",
        "kana": "えんがる",
        "lines": [
            "jr-hokkaido.sekihoku-main"
        ],
        "region": "道北",
        "lat": 44.0617,
        "lon": 143.5283,
        "name_en": "Engaru",
        "name_zh": "遠軽"
    },
    {
        "id": "memambetsu",
        "name": "女満別",
        "kana": "めまんべつ",
        "lines": [
            "jr-hokkaido.sekihoku-main"
        ],
        "region": "道北",
        "lat": 43.92,
        "lon": 144.17,
        "name_en": "Memambetsu",
        "name_zh": "女満別"
    },
    {
        "id": "abashiri",
        "name": "網走",
        "kana": "あばしり",
        "lines": [
            "jr-hokkaido.sekihoku-main",
            "jr-hokkaido.senmo-main"
        ],
        "region": "道北",
        "isMajor": true,
        "lat": 44.0202,
        "lon": 144.2547,
        "name_en": "Abashiri",
        "name_zh": "網走"
    },
    {
        "id": "bihoro",
        "name": "美幌",
        "kana": "びほろ",
        "lines": [
            "jr-hokkaido.sekihoku-main"
        ],
        "region": "道北",
        "lat": 43.8322,
        "lon": 144.1083,
        "name_en": "Bihoro",
        "name_zh": "美幌"
    },
    {
        "id": "kitami",
        "name": "北見",
        "kana": "きたみ",
        "lines": [
            "jr-hokkaido.sekihoku-main"
        ],
        "region": "道北",
        "lat": 43.8057,
        "lon": 143.8962,
        "name_en": "Kitami",
        "name_zh": "北見"
    },
    {
        "id": "shintoku",
        "name": "新得",
        "kana": "しんとく",
        "lines": [
            "jr-hokkaido.sekisho",
            "jr-hokkaido.nemuro-main"
        ],
        "region": "道東",
        "lat": 43.0833,
        "lon": 142.8333,
        "name_en": "Shintoku",
        "name_zh": "新得"
    },
    {
        "id": "obihiro",
        "name": "帯広",
        "kana": "おびひろ",
        "lines": [
            "jr-hokkaido.nemuro-main"
        ],
        "region": "道東",
        "isMajor": true,
        "lat": 42.918,
        "lon": 143.2088,
        "name_en": "Obihiro",
        "name_zh": "帯広"
    },
    {
        "id": "ikeda",
        "name": "池田",
        "kana": "いけだ",
        "lines": [
            "jr-hokkaido.nemuro-main"
        ],
        "region": "道東",
        "lat": 42.9267,
        "lon": 143.4475,
        "name_en": "Ikeda",
        "name_zh": "池田"
    },
    {
        "id": "shiranuka",
        "name": "白糠",
        "kana": "しらぬか",
        "lines": [
            "jr-hokkaido.nemuro-main"
        ],
        "region": "道東",
        "lat": 42.95,
        "lon": 144.07,
        "name_en": "Shiranuka",
        "name_zh": "白糠"
    },
    {
        "id": "kushiro",
        "name": "釧路",
        "kana": "くしろ",
        "lines": [
            "jr-hokkaido.nemuro-main",
            "jr-hokkaido.senmo-main"
        ],
        "region": "道東",
        "isMajor": true,
        "lat": 42.9904,
        "lon": 144.3814,
        "name_en": "Kushiro",
        "name_zh": "釧路"
    },
    {
        "id": "atsukeshi",
        "name": "厚岸",
        "kana": "あっけし",
        "lines": [
            "jr-hokkaido.nemuro-main"
        ],
        "region": "道東",
        "lat": 43.0514,
        "lon": 144.8458,
        "name_en": "Atsukeshi",
        "name_zh": "厚岸"
    },
    {
        "id": "hamanaka",
        "name": "浜中",
        "kana": "はまなか",
        "lines": [
            "jr-hokkaido.nemuro-main"
        ],
        "region": "道東",
        "lat": 43.14,
        "lon": 145.06,
        "name_en": "Hamanaka",
        "name_zh": "浜中"
    },
    {
        "id": "attoko",
        "name": "厚床",
        "kana": "あっとこ",
        "lines": [
            "jr-hokkaido.nemuro-main"
        ],
        "region": "道東",
        "lat": 43.23,
        "lon": 145.24,
        "name_en": "Attoko",
        "name_zh": "厚床"
    },
    {
        "id": "nemuro",
        "name": "根室",
        "kana": "ねむろ",
        "lines": [
            "jr-hokkaido.nemuro-main"
        ],
        "region": "道東",
        "lat": 43.3304,
        "lon": 145.5826,
        "name_en": "Nemuro",
        "name_zh": "根室"
    },
    {
        "id": "mashu",
        "name": "摩周",
        "kana": "ましゅう",
        "lines": [
            "jr-hokkaido.senmo-main"
        ],
        "region": "道東",
        "lat": 43.4883,
        "lon": 144.5333,
        "name_en": "Mashu",
        "name_zh": "摩周"
    },
    {
        "id": "kawayu-onsen",
        "name": "川湯温泉",
        "kana": "かわゆおんせん",
        "lines": [
            "jr-hokkaido.senmo-main"
        ],
        "region": "道東",
        "lat": 43.62,
        "lon": 144.45,
        "name_en": "Kawayu Onsen",
        "name_zh": "川湯温泉"
    },
    {
        "id": "midori",
        "name": "緑",
        "kana": "みどり",
        "lines": [
            "jr-hokkaido.senmo-main"
        ],
        "region": "道東",
        "lat": 43.72,
        "lon": 144.5,
        "name_en": "Midori",
        "name_zh": "緑"
    },
    {
        "id": "shiretoko-shari",
        "name": "知床斜里",
        "kana": "しれとこしゃり",
        "lines": [
            "jr-hokkaido.senmo-main"
        ],
        "region": "道東",
        "lat": 43.9103,
        "lon": 144.661,
        "name_en": "Shiretoko Shari",
        "name_zh": "知床斜里"
    },
    {
        "id": "hakodate",
        "name": "函館",
        "kana": "はこだて",
        "lines": [
            "jr-hokkaido.hakodate-south"
        ],
        "region": "道南",
        "isMajor": true,
        "lat": 41.7737,
        "lon": 140.7264,
        "name_en": "Hakodate",
        "name_zh": "函館"
    },
    {
        "id": "shin-hakodate-hokuto",
        "name": "新函館北斗",
        "kana": "しんはこだてほくと",
        "lines": [
            "jr-hokkaido.hakodate-south"
        ],
        "region": "道南",
        "isMajor": true,
        "lat": 41.9048,
        "lon": 140.6481,
        "name_en": "Shin Hakodate Hokuto",
        "name_zh": "新函館北斗"
    },
    {
        "id": "nanae",
        "name": "七飯",
        "kana": "ななえ",
        "lines": [
            "jr-hokkaido.hakodate-south"
        ],
        "region": "道南",
        "lat": 41.88,
        "lon": 140.68,
        "name_en": "Nanae",
        "name_zh": "七飯"
    },
    {
        "id": "onuma",
        "name": "大沼",
        "kana": "おおぬま",
        "lines": [
            "jr-hokkaido.hakodate-south"
        ],
        "region": "道南",
        "lat": 41.97,
        "lon": 140.67,
        "name_en": "Onuma",
        "name_zh": "大沼"
    },
    {
        "id": "onuma-koen",
        "name": "大沼公園",
        "kana": "おおぬまこうえん",
        "lines": [
            "jr-hokkaido.hakodate-south"
        ],
        "region": "道南",
        "lat": 41.98,
        "lon": 140.67,
        "name_en": "Onuma Koen",
        "name_zh": "大沼公園"
    },
    {
        "id": "mori",
        "name": "森",
        "kana": "もり",
        "lines": [
            "jr-hokkaido.hakodate-south"
        ],
        "region": "道南",
        "lat": 42.1098,
        "lon": 140.5746,
        "name_en": "Mori",
        "name_zh": "森"
    },
    {
        "id": "yakumo",
        "name": "八雲",
        "kana": "やくも",
        "lines": [
            "jr-hokkaido.hakodate-south"
        ],
        "region": "道南",
        "lat": 42.2533,
        "lon": 140.2725,
        "name_en": "Yakumo",
        "name_zh": "八雲"
    },
    {
        "id": "oshamambe",
        "name": "長万部",
        "kana": "おしゃまんべ",
        "lines": [
            "jr-hokkaido.hakodate-south",
            "jr-hokkaido.muroran-main"
        ],
        "region": "道南",
        "lat": 42.5126,
        "lon": 140.3752,
        "name_en": "Oshamambe",
        "name_zh": "長万部"
    }
]